{
  "file": "./models/stations.json",
  "stations": [
    {
      "title": "Donegal",
      "latitude": "54.92075415",
      "longitude": "-7.952385214651309",
      "userid": "7b3dda50-88cc-4267-8f08-737e2e40e0be",
      "_id": "8c4c6bd9-6139-481f-94b6-13eaf44f6558"
    },
    {
      "title": "Kerry",
      "latitude": "52.14533445",
      "longitude": "-9.517401092833236",
      "userid": "7b3dda50-88cc-4267-8f08-737e2e40e0be",
      "_id": "c4561a1a-4cdd-4c9d-b32f-7ab59b158225"
    },
    {
      "title": "Wexford",
      "latitude": "52.3367671",
      "longitude": "-6.4601397",
      "userid": "7b3dda50-88cc-4267-8f08-737e2e40e0be",
      "_id": "ad71b21d-3841-4ff2-9412-80d637fbcb03"
    },
    {
      "title": "Clare",
      "latitude": "52.857257450000006",
      "longitude": "-8.937435925994537",
      "userid": "7b3dda50-88cc-4267-8f08-737e2e40e0be",
      "_id": "3a67cb86-0fbc-41a4-a5fb-4dd0cbffecf5"
    },
    {
      "title": "Dublin",
      "latitude": "53.33306",
      "longitude": "-6.24889",
      "userid": "7b3dda50-88cc-4267-8f08-737e2e40e0be",
      "_id": "13a64ee0-df28-4f0b-b4fa-f23a92206d73"
    },
    {
      "title": "Cork",
      "latitude": "51.822198",
      "longitude": " -8.474121",
      "userid": "7b3dda50-88cc-4267-8f08-737e2e40e0be",
      "_id": "15897126-913d-40e0-b396-d9f01e2cc3c0"
    }
  ]
}